{"data":{"bikeRentalStations":[{"stationId":"070","name":"Sammonpuistikko","lat":60.1731473,"lon":24.9224112,"bikesAvailable":5,"spacesAvailable":9},{"stationId":"071","name":"Hietaniemenkatu","lat":60.17263,"lon":24.911406,"bikesAvailable":13,"spacesAvailable":15},{"stationId":"072","name":"Eteläinen Hesperiankatu","lat":60.1756332,"lon":24.9160216,"bikesAvailable":0,"spacesAvailable":18},{"stationId":"073","name":"Kesäkatu","lat":60.1792967,"lon":24.9132504,"bikesAvailable":3,"spacesAvailable":11},{"stationId":"074","name":"Rajasaarentie","lat":60.183137,"lon":24.911127,"bikesAvailable":8,"spacesAvailable":8},{"stationId":"075","name":"Korjaamo","lat":60.1838677,"lon":24.9198371,"bikesAvailable":0,"spacesAvailable":20},{"stationId":"076","name":"Olympiastadion","lat":60.1845055,"lon":24.9249741,"bikesAvailable":1,"spacesAvailable":19},{"stationId":"110","name":"Maistraatintori","lat":60.198898,"lon":24.924867,"bikesAvailable":5,"spacesAvailable":15},{"stationId":"078","name":"Messeniuksenkatu","lat":60.1878352,"lon":24.9180102,"bikesAvailable":3,"spacesAvailable":21},{"stationId":"111","name":"Esterinportti","lat":60.1975724,"lon":24.9267808,"bikesAvailable":4,"spacesAvailable":16},{"stationId":"079","name":"Uimastadion","lat":60.1892172,"lon":24.9292286,"bikesAvailable":0,"spacesAvailable":26},{"stationId":"112","name":"Rautatieläisenkatu","lat":60.2014382,"lon":24.9332721,"bikesAvailable":1,"spacesAvailable":21},{"stationId":"113","name":"Veturitori","lat":60.199715,"lon":24.935198,"bikesAvailable":0,"spacesAvailable":40},{"stationId":"114","name":"Ratapihantie","lat":60.197016,"lon":24.935891,"bikesAvailable":1,"spacesAvailable":25},{"stationId":"115","name":"Venttiilikuja","lat":60.1942095,"lon":24.941578,"bikesAvailable":0,"spacesAvailable":16},{"stationId":"116","name":"Linnanmäki","lat":60.1911411,"lon":24.9401593,"bikesAvailable":9,"spacesAvailable":23},{"stationId":"117","name":"Brahen puistikko","lat":60.1896706,"lon":24.9481024,"bikesAvailable":1,"spacesAvailable":11},{"stationId":"118","name":"Fleminginkatu","lat":60.1895417,"lon":24.9521601,"bikesAvailable":1,"spacesAvailable":21},{"stationId":"119","name":"Gebhardinaukio","lat":60.1907096,"lon":24.9568729,"bikesAvailable":15,"spacesAvailable":7},{"stationId":"080","name":"Jäähalli","lat":60.1894025,"lon":24.9205978,"bikesAvailable":4,"spacesAvailable":24},{"stationId":"081","name":"Stenbäckinkatu","lat":60.1883091,"lon":24.9123717,"bikesAvailable":1,"spacesAvailable":17},{"stationId":"082","name":"Töölöntulli","lat":60.190663,"lon":24.914096,"bikesAvailable":0,"spacesAvailable":20},{"stationId":"083","name":"Meilahden sairaala","lat":60.1902195,"lon":24.9083351,"bikesAvailable":18,"spacesAvailable":9},{"stationId":"085","name":"Jalavatie","lat":60.1934696,"lon":24.905889,"bikesAvailable":3,"spacesAvailable":13},{"stationId":"086","name":"Kuusitie","lat":60.1952452,"lon":24.9018997,"bikesAvailable":0,"spacesAvailable":24},{"stationId":"120","name":"Mäkelänkatu","lat":60.1896352,"lon":24.9635596,"bikesAvailable":1,"spacesAvailable":27},{"stationId":"121","name":"Vilhonvuorenkatu","lat":60.1864633,"lon":24.9678718,"bikesAvailable":13,"spacesAvailable":3},{"stationId":"001","name":"Kaivopuisto","lat":60.155411,"lon":24.950391,"bikesAvailable":11,"spacesAvailable":19},{"stationId":"089","name":"Tilkanvierto","lat":60.1975329,"lon":24.899261,"bikesAvailable":2,"spacesAvailable":14},{"stationId":"122","name":"Lintulahdenkatu","lat":60.1837182,"lon":24.9621936,"bikesAvailable":22,"spacesAvailable":2},{"stationId":"002","name":"Laivasillankatu","lat":60.159715,"lon":24.955212,"bikesAvailable":5,"spacesAvailable":9},{"stationId":"123","name":"Näkinsilta","lat":60.179765,"lon":24.9554618,"bikesAvailable":2,"spacesAvailable":14},{"stationId":"003","name":"Kapteeninpuistikko","lat":60.158172,"lon":24.944808,"bikesAvailable":1,"spacesAvailable":15},{"stationId":"004","name":"Viiskulma","lat":60.160944,"lon":24.941859,"bikesAvailable":8,"spacesAvailable":6},{"stationId":"125","name":"Arielinkatu","lat":60.1847821,"lon":24.9786428,"bikesAvailable":8,"spacesAvailable":14},{"stationId":"005","name":"Sepänkatu","lat":60.157935,"lon":24.936083,"bikesAvailable":5,"spacesAvailable":27},{"stationId":"126","name":"Kalasataman metroasema","lat":60.188399,"lon":24.975852,"bikesAvailable":10,"spacesAvailable":16},{"stationId":"006","name":"Hietalahdentori","lat":60.162287,"lon":24.929542,"bikesAvailable":8,"spacesAvailable":16},{"stationId":"127","name":"Teurastamo","lat":60.1896994,"lon":24.9711926,"bikesAvailable":42,"spacesAvailable":0},{"stationId":"007","name":"Designmuseo","lat":60.163084,"lon":24.945894,"bikesAvailable":8,"spacesAvailable":6},{"stationId":"128","name":"Päijänteentie","lat":60.1920576,"lon":24.9642238,"bikesAvailable":2,"spacesAvailable":12},{"stationId":"008","name":"Vanha kirkkopuisto","lat":60.165311,"lon":24.939186,"bikesAvailable":4,"spacesAvailable":13},{"stationId":"129","name":"Pernajantie","lat":60.1942342,"lon":24.9579931,"bikesAvailable":0,"spacesAvailable":20},{"stationId":"009","name":"Erottaja","lat":60.167092,"lon":24.944345,"bikesAvailable":49,"spacesAvailable":2},{"stationId":"091","name":"Seurasaari","lat":60.188399,"lon":24.8847362,"bikesAvailable":7,"spacesAvailable":15},{"stationId":"092","name":"Saunalahdentie","lat":60.1928927,"lon":24.878452,"bikesAvailable":17,"spacesAvailable":0},{"stationId":"093","name":"Torpanranta","lat":60.1948358,"lon":24.8713963,"bikesAvailable":3,"spacesAvailable":13},{"stationId":"094","name":"Laajalahden aukio","lat":60.1983016,"lon":24.8759851,"bikesAvailable":21,"spacesAvailable":2},{"stationId":"095","name":"Munkkiniemen aukio","lat":60.1967196,"lon":24.8840917,"bikesAvailable":9,"spacesAvailable":10},{"stationId":"096","name":"Huopalahdentie","lat":60.1996653,"lon":24.8836209,"bikesAvailable":14,"spacesAvailable":5},{"stationId":"097","name":"Professorintie","lat":60.2006837,"lon":24.8766846,"bikesAvailable":5,"spacesAvailable":3},{"stationId":"130","name":"Teollisuuskatu","lat":60.193486,"lon":24.9487524,"bikesAvailable":29,"spacesAvailable":0},{"stationId":"010","name":"Kasarmitori","lat":60.165018,"lon":24.949497,"bikesAvailable":23,"spacesAvailable":5},{"stationId":"098","name":"Ulvilantie","lat":60.2038803,"lon":24.8708833,"bikesAvailable":4,"spacesAvailable":8},{"stationId":"131","name":"Elimäenkatu","lat":60.1962627,"lon":24.9476186,"bikesAvailable":28,"spacesAvailable":1},{"stationId":"011","name":"Unioninkatu","lat":60.167562,"lon":24.951004,"bikesAvailable":46,"spacesAvailable":0},{"stationId":"099","name":"Muusantori","lat":60.2071193,"lon":24.8559544,"bikesAvailable":7,"spacesAvailable":7},{"stationId":"012","name":"Kanavaranta","lat":60.168488,"lon":24.958478,"bikesAvailable":21,"spacesAvailable":2},{"stationId":"133","name":"Paavalinpuisto","lat":60.1974886,"lon":24.9614385,"bikesAvailable":1,"spacesAvailable":21},{"stationId":"013","name":"Merisotilaantori","lat":60.167891,"lon":24.975561,"bikesAvailable":2,"spacesAvailable":10},{"stationId":"134","name":"Haukilahdenkatu","lat":60.1985314,"lon":24.9676708,"bikesAvailable":5,"spacesAvailable":13},{"stationId":"014","name":"Senaatintori","lat":60.169106,"lon":24.952527,"bikesAvailable":40,"spacesAvailable":0},{"stationId":"135","name":"Velodrominrinne","lat":60.2010614,"lon":24.9440506,"bikesAvailable":0,"spacesAvailable":20},{"stationId":"015","name":"Ritarikatu","lat":60.171025,"lon":24.955571,"bikesAvailable":0,"spacesAvailable":12},{"stationId":"136","name":"Sofianlehdonkatu","lat":60.2032721,"lon":24.9513636,"bikesAvailable":0,"spacesAvailable":16},{"stationId":"016","name":"Liisanpuistikko","lat":60.174175,"lon":24.96148,"bikesAvailable":8,"spacesAvailable":8},{"stationId":"137","name":"Arabian kauppakeskus","lat":60.2027912,"lon":24.9666128,"bikesAvailable":11,"spacesAvailable":13},{"stationId":"017","name":"Varsapuistikko","lat":60.173099,"lon":24.949636,"bikesAvailable":23,"spacesAvailable":5},{"stationId":"138","name":"Arabiankatu","lat":60.2064085,"lon":24.9765672,"bikesAvailable":2,"spacesAvailable":12},{"stationId":"018","name":"Porthania","lat":60.169873,"lon":24.948153,"bikesAvailable":35,"spacesAvailable":1},{"stationId":"139","name":"Kaironkatu","lat":60.2100255,"lon":24.9765801,"bikesAvailable":15,"spacesAvailable":2},{"stationId":"019","name":"Rautatientori / itä","lat":60.17076,"lon":24.942522,"bikesAvailable":3,"spacesAvailable":17},{"stationId":"140","name":"Verkatehtaanpuisto","lat":60.2137007,"lon":24.9797283,"bikesAvailable":8,"spacesAvailable":7},{"stationId":"020","name":"Kaisaniemenpuisto","lat":60.172958,"lon":24.94292,"bikesAvailable":1,"spacesAvailable":21},{"stationId":"141","name":"Intiankatu","lat":60.2078582,"lon":24.9676383,"bikesAvailable":4,"spacesAvailable":20},{"stationId":"021","name":"Töölönlahdenkatu","lat":60.17291,"lon":24.93913,"bikesAvailable":7,"spacesAvailable":21},{"stationId":"142","name":"Koskelantie","lat":60.208749,"lon":24.9465139,"bikesAvailable":2,"spacesAvailable":12},{"stationId":"022","name":"Rautatientori / länsi","lat":60.1706,"lon":24.939671,"bikesAvailable":14,"spacesAvailable":2},{"stationId":"023","name":"Kiasma","lat":60.171413,"lon":24.937402,"bikesAvailable":13,"spacesAvailable":17},{"stationId":"144","name":"Käpyläntie","lat":60.2139043,"lon":24.9588108,"bikesAvailable":2,"spacesAvailable":12},{"stationId":"024","name":"Mannerheimintie","lat":60.169045,"lon":24.939429,"bikesAvailable":22,"spacesAvailable":1},{"stationId":"145","name":"Pohjolankatu","lat":60.213421,"lon":24.9437964,"bikesAvailable":0,"spacesAvailable":18},{"stationId":"025","name":"Narinkka","lat":60.170015,"lon":24.935259,"bikesAvailable":8,"spacesAvailable":32},{"stationId":"146","name":"Pohjolanaukio","lat":60.2172043,"lon":24.9544112,"bikesAvailable":14,"spacesAvailable":6},{"stationId":"026","name":"Kampin metroasema","lat":60.168644,"lon":24.930435,"bikesAvailable":2,"spacesAvailable":25},{"stationId":"147","name":"Käpylän asema","lat":60.220227,"lon":24.948694,"bikesAvailable":6,"spacesAvailable":16},{"stationId":"027","name":"Eerikinkatu","lat":60.16739,"lon":24.935913,"bikesAvailable":8,"spacesAvailable":6},{"stationId":"148","name":"Juhana Herttuan tie","lat":60.2184427,"lon":24.9664619,"bikesAvailable":0,"spacesAvailable":16},{"stationId":"028","name":"Lastenlehto","lat":60.165754,"lon":24.92705,"bikesAvailable":8,"spacesAvailable":8},{"stationId":"149","name":"Toinen linja","lat":60.183164,"lon":24.9441949,"bikesAvailable":1,"spacesAvailable":21},{"stationId":"029","name":"Baana","lat":60.164159,"lon":24.922583,"bikesAvailable":22,"spacesAvailable":0},{"stationId":"150","name":"Töölönlahden puisto","lat":60.1766793,"lon":24.9338701,"bikesAvailable":3,"spacesAvailable":29},{"stationId":"030","name":"Itämerentori","lat":60.163535,"lon":24.914765,"bikesAvailable":36,"spacesAvailable":5},{"stationId":"151","name":"Ruomelantie","lat":60.174524,"lon":24.729314,"bikesAvailable":7,"spacesAvailable":5},{"stationId":"031","name":"Marian Sairaala","lat":60.168335,"lon":24.92277,"bikesAvailable":0,"spacesAvailable":16},{"stationId":"152","name":"Friisinkalliontie","lat":60.168971,"lon":24.724908,"bikesAvailable":7,"spacesAvailable":9},{"stationId":"032","name":"Eläinmuseo","lat":60.171346,"lon":24.931874,"bikesAvailable":4,"spacesAvailable":16},{"stationId":"153","name":"Kuunkatu","lat":60.172673,"lon":24.726025,"bikesAvailable":8,"spacesAvailable":16},{"stationId":"033","name":"Kauppakorkeakoulu","lat":60.171155,"lon":24.92506,"bikesAvailable":3,"spacesAvailable":13},{"stationId":"154","name":"Olarinkatu","lat":60.167216,"lon":24.735969,"bikesAvailable":11,"spacesAvailable":5},{"stationId":"034","name":"Kansallismuseo","lat":60.173944,"lon":24.932879,"bikesAvailable":1,"spacesAvailable":15},{"stationId":"155","name":"Piispansilta","lat":60.162403,"lon":24.738416,"bikesAvailable":20,"spacesAvailable":13},{"stationId":"156","name":"Suomenlahdentie","lat":60.159537,"lon":24.7383,"bikesAvailable":7,"spacesAvailable":25},{"stationId":"036","name":"Apollonkatu","lat":60.176076,"lon":24.922503,"bikesAvailable":2,"spacesAvailable":10},{"stationId":"157","name":"Kalastajantie","lat":60.153737,"lon":24.729112,"bikesAvailable":9,"spacesAvailable":3},{"stationId":"037","name":"Töölönkatu","lat":60.1774947,"lon":24.928409278,"bikesAvailable":2,"spacesAvailable":16},{"stationId":"158","name":"Sepetlahdentie","lat":60.152343,"lon":24.741234,"bikesAvailable":5,"spacesAvailable":5},{"stationId":"038","name":"Töölöntori","lat":60.179141,"lon":24.924981,"bikesAvailable":0,"spacesAvailable":16},{"stationId":"159","name":"Matinkartanontie","lat":60.158083,"lon":24.750928,"bikesAvailable":19,"spacesAvailable":9},{"stationId":"039","name":"Ooppera","lat":60.182578,"lon":24.926764,"bikesAvailable":0,"spacesAvailable":20},{"stationId":"160","name":"Nokkala","lat":60.147974,"lon":24.754344,"bikesAvailable":6,"spacesAvailable":12},{"stationId":"040","name":"Hakaniemen metroasema","lat":60.178102,"lon":24.952391,"bikesAvailable":12,"spacesAvailable":16},{"stationId":"041","name":"Ympyrätalo","lat":60.180808,"lon":24.949272,"bikesAvailable":1,"spacesAvailable":27},{"stationId":"042","name":"Haapaniemenkatu","lat":60.181907,"lon":24.95688,"bikesAvailable":2,"spacesAvailable":16},{"stationId":"043","name":"Karhupuisto","lat":60.184283,"lon":24.952703,"bikesAvailable":3,"spacesAvailable":17},{"stationId":"044","name":"Sörnäisten metroasema","lat":60.187704,"lon":24.960505,"bikesAvailable":0,"spacesAvailable":24},{"stationId":"045","name":"Brahen kenttä","lat":60.186742,"lon":24.950833,"bikesAvailable":0,"spacesAvailable":20},{"stationId":"046","name":"Diakoniapuisto","lat":60.186281,"lon":24.941812,"bikesAvailable":1,"spacesAvailable":9},{"stationId":"047","name":"Kauppatori","lat":60.167626,"lon":24.95643,"bikesAvailable":23,"spacesAvailable":1},{"stationId":"048","name":"Mastokatu","lat":60.1648,"lon":24.968021,"bikesAvailable":2,"spacesAvailable":14},{"stationId":"050","name":"Melkonkuja","lat":60.1498127,"lon":24.8861094,"bikesAvailable":7,"spacesAvailable":11},{"stationId":"051","name":"Itälahdenkatu","lat":60.15066,"lon":24.8812502,"bikesAvailable":19,"spacesAvailable":3},{"stationId":"052","name":"Heikkilänaukio","lat":60.1540763,"lon":24.8793159,"bikesAvailable":13,"spacesAvailable":8},{"stationId":"053","name":"Heikkiläntie","lat":60.156817,"lon":24.8850653,"bikesAvailable":9,"spacesAvailable":4},{"stationId":"054","name":"Gyldenintie","lat":60.1583842,"lon":24.8766658,"bikesAvailable":8,"spacesAvailable":18},{"stationId":"055","name":"Lahnalahdentie","lat":60.1617736,"lon":24.8679212,"bikesAvailable":3,"spacesAvailable":13},{"stationId":"056","name":"Luoteisväylä","lat":60.1654485,"lon":24.8601992,"bikesAvailable":4,"spacesAvailable":12},{"stationId":"057","name":"Lauttasaaren ostoskeskus","lat":60.1603306,"lon":24.8815441,"bikesAvailable":0,"spacesAvailable":26},{"stationId":"058","name":"Lauttasaarensilta","lat":60.1615512,"lon":24.8926386,"bikesAvailable":8,"spacesAvailable":12},{"stationId":"060","name":"Porkkalankatu","lat":60.1632493,"lon":24.905336,"bikesAvailable":55,"spacesAvailable":1},{"stationId":"061","name":"Länsisatamankatu","lat":60.1589276,"lon":24.909692,"bikesAvailable":1,"spacesAvailable":15},{"stationId":"062","name":"Messitytönkatu","lat":60.1610901,"lon":24.9158734,"bikesAvailable":3,"spacesAvailable":15},{"stationId":"063","name":"Jätkäsaarenlaituri","lat":60.1619311,"lon":24.9214896,"bikesAvailable":9,"spacesAvailable":15},{"stationId":"064","name":"Tyynenmerenkatu","lat":60.1565255,"lon":24.9217464,"bikesAvailable":9,"spacesAvailable":20},{"stationId":"065","name":"Hylkeenpyytäjänkatu","lat":60.1546505,"lon":24.9314755,"bikesAvailable":23,"spacesAvailable":8},{"stationId":"066","name":"Ehrenströmintie","lat":60.155309,"lon":24.9591271,"bikesAvailable":3,"spacesAvailable":21},{"stationId":"100","name":"Ulvilanpuisto","lat":60.2066706,"lon":24.871352,"bikesAvailable":5,"spacesAvailable":7},{"stationId":"068","name":"Albertinkatu","lat":60.1618359,"lon":24.9368179,"bikesAvailable":8,"spacesAvailable":12},{"stationId":"101","name":"Munkkivuoren ostoskeskus","lat":60.2059946,"lon":24.8798291,"bikesAvailable":10,"spacesAvailable":14},{"stationId":"069","name":"Kalevankatu","lat":60.1656962,"lon":24.9314323,"bikesAvailable":1,"spacesAvailable":15},{"stationId":"102","name":"Niemenmäenkuja","lat":60.2039914,"lon":24.8857767,"bikesAvailable":7,"spacesAvailable":3},{"stationId":"103","name":"Vihdintie","lat":60.208925,"lon":24.8895209,"bikesAvailable":3,"spacesAvailable":12},{"stationId":"104","name":"Kriikunakuja","lat":60.2056785,"lon":24.8916817,"bikesAvailable":1,"spacesAvailable":15},{"stationId":"105","name":"Tilkantori","lat":60.2028392,"lon":24.8934761,"bikesAvailable":12,"spacesAvailable":4},{"stationId":"106","name":"Korppaanmäentie","lat":60.2034735,"lon":24.8989297,"bikesAvailable":11,"spacesAvailable":7},{"stationId":"107","name":"Tenholantie","lat":60.2024393,"lon":24.9054609,"bikesAvailable":3,"spacesAvailable":11},{"stationId":"108","name":"Radiokatu","lat":60.204447,"lon":24.917931,"bikesAvailable":8,"spacesAvailable":6},{"stationId":"109","name":"Hertanmäenkatu","lat":60.202336,"lon":24.922654,"bikesAvailable":10,"spacesAvailable":10}]}}